 [{
  "id": "0cfe1f3f-9767-11e7-9da0-fa163e4e87c4",
  "lon": "120.037857",
  "lat": "35.877348",
  "name": "王秀峰",
  "phone": "18561690631",
  "address": "青岛市",
  "ygroup": "21"
}, {
  "id": "1727379e-976a-11e7-9da0-fa163e4e87c4",
  "lon": "106.641941",
  "lat": "29.745536",
  "name": "张国赟",
  "phone": "15736183790",
  "address": "",
  "ygroup": "21"
}, {
  "id": "19fab347-9763-11e7-9da0-fa163e4e87c4",
  "lon": "116.059216",
  "lat": "36.448763",
  "name": "张倩",
  "phone": "18063535913",
  "address": "聊城市",
  "ygroup": "21"
}, {
  "id": "361439c5-9764-11e7-9da0-fa163e4e87c4",
  "lon": "116.2721",
  "lat": "40.043",
  "name": "孙庆鑫",
  "phone": "110",
  "address": "",
  "ygroup": "21"
}, {
  "id": "379a5686-975d-11e7-b266-fa163e4e87c4",
  "lon": "114.30674",
  "lat": "30.61104",
  "name": "乔延军",
  "phone": "13135696556",
  "address": "武汉市",
  "ygroup": "21"
}, {
  "id": "4155ab42-9768-11e7-9da0-fa163e4e87c4",
  "lon": "117.202283",
  "lat": "39.135735",
  "name": "王泽鲁",
  "phone": "18622218207",
  "address": "",
  "ygroup": "21"
}]
