[{
	"id": "0afece4a-979f-11e7-8fd5-fa163e4e87c4",
	"lon": "115.966345",
	"lat": "36.470219",
	"name": "王芳",
	"phone": "18463527662",
	"address": "聊城市",
	"ygroup": "21"
}, {
	"id": "0cfe1f3f-9767-11e7-9da0-fa163e4e87c4",
	"lon": "120.037857",
	"lat": "35.877348",
	"name": "王秀峰",
	"phone": "18561690631",
	"address": "青岛市",
	"ygroup": "21"
}, {
	"id": "1727379e-976a-11e7-9da0-fa163e4e87c4",
	"lon": "106.641941",
	"lat": "29.745536",
	"name": "张国赟",
	"phone": "15736183790",
	"address": "重庆市",
	"ygroup": "21"
}, {
	"id": "19fab347-9763-11e7-9da0-fa163e4e87c4",
	"lon": "116.059216",
	"lat": "36.448763",
	"name": "张倩",
	"phone": "18063535913",
	"address": "聊城市",
	"ygroup": "21"
}, {
	"id": "348e8deb-97a9-11e7-8fd5-fa163e4e87c4",
	"lon": "121.439635",
	"lat": "37.457191",
	"name": "张阳",
	"phone": "18040026501",
	"address": "烟台市",
	"ygroup": "21"
}, {
	"id": "361439c5-9764-11e7-9da0-fa163e4e87c4",
	"lon": "116.2721",
	"lat": "40.043",
	"name": "孙庆鑫",
	"phone": "13260091236",
	"address": "北京市",
	"ygroup": "21"
}, {
	"id": "379a5686-975d-11e7-b266-fa163e4e87c4",
	"lon": "114.30674",
	"lat": "30.61104",
	"name": "乔延军",
	"phone": "13135696556",
	"address": "武汉市",
	"ygroup": "21"
}, {
	"id": "4155ab42-9768-11e7-9da0-fa163e4e87c4",
	"lon": "117.202283",
	"lat": "39.135735",
	"name": "王泽鲁",
	"phone": "18622218207",
	"address": "天津市",
	"ygroup": "21"
}, {
	"id": "9d4b0808-979f-11e7-8fd5-fa163e4e87c4",
	"lon": "118.076924",
	"lat": "37.721607",
	"name": "代洪彬",
	"phone": "15753161137",
	"address": "滨州市",
	"ygroup": "21"
}, {
	"id": "b7cf1b1f-979f-11e7-8fd5-fa163e4e87c4",
	"lon": "117.085535",
	"lat": "36.713074",
	"name": "杨尊磊",
	"phone": "17763515219",
	"address": "济南市",
	"ygroup": "21"
}, {
	"id": "cf85112f-9762-11e7-9da0-fa163e4e87c4",
	"lon": "126.504819",
	"lat": "45.798696",
	"name": "侯桂先",
	"phone": "110",
	"address": "哈尔滨市",
	"ygroup": "21"
}, {
	"id": "d6cc2d0b-9762-11e7-9da0-fa163e4e87c4",
	"lon": "114.081238",
	"lat": "30.445549",
	"name": "渠胜华",
	"phone": "13554410763",
	"address": "武汉市",
	"ygroup": "21"
}, {
	"id": "e3d5765c-9767-11e7-9da0-fa163e4e87c4",
	"lon": "120.668097",
	"lat": "31.301315",
	"name": "拉面",
	"phone": "17615831042",
	"address": "苏州市",
	"ygroup": "2"
}]
